{
  "stations":[
    {
      "name":"Kaivopuisto",
      "total_slots":30,
      "lat":"60.155411",
      "lon":"24.950391",
      "stationId":"001"
    },
    {
      "name":"Laivasillankatu",
      "total_slots":12,
      "lat":"60.159715",
      "lon":"24.955212",
      "stationId":"002"
    },
    {
      "name":"Kapteeninpuistikko",
      "total_slots":16,
      "lat":"60.158172",
      "lon":"24.944808",
      "stationId":"003"
    },
    {
      "name":"Viiskulma",
      "total_slots":14,
      "lat":"60.160944",
      "lon":"24.941859",
      "stationId":"004"
    },
    {
      "name":"Sepänkatu",
      "total_slots":32,
      "lat":"60.157935",
      "lon":"24.936083",
      "stationId":"005"
    },
    {
      "name":"Hietalahdentori",
      "total_slots":24,
      "lat":"60.162287",
      "lon":"24.929542",
      "stationId":"006"
    },
    {
      "name":"Designmuseo",
      "total_slots":14,
      "lat":"60.163084",
      "lon":"24.945894",
      "stationId":"007"
    },
    {
      "name":"Vanha kirkkopuisto",
      "total_slots":16,
      "lat":"60.165311",
      "lon":" 24.939186",
      "stationId":"008"
    },
    {
      "name":"Erottaja",
      "total_slots":30,
      "lat":"60.167092",
      "lon":"24.944345",
      "stationId":"009"
    },
    {
      "name":"Kasarmitori",
      "total_slots":16,
      "lat":"60.165018",
      "lon":"24.949497",
      "stationId":"010"
    },
    {
      "name":"Unioninkatu",
      "total_slots":22,
      "lat":"60.167562",
      "lon":"24.951004",
      "stationId":"011"
    },
    {
      "name":"Kanavaranta",
      "total_slots":16,
      "lat":"60.168488",
      "lon":"24.958478",
      "stationId":"012"
    },
    {
      "name":"Merisotilaantori",
      "total_slots":12,
      "lat":"60.167891",
      "lon":"24.975561",
      "stationId":"013"
    },
    {
      "name":"Senaatintori",
      "total_slots":30,
      "lat":"60.169106",
      "lon":"24.952527",
      "stationId":"014"
    },
    {
      "name":"Ritarikatu",
      "total_slots":12,
      "lat":"60.171025",
      "lon":" 24.955571",
      "stationId":"015"
    },
    {
      "name":"Liisanpuistikko",
      "total_slots":16,
      "lat":"60.174175",
      "lon":"24.961480",
      "stationId":"016"
    },
    {
      "name":"Varsapuistikko",
      "total_slots":28,
      "lat":"60.173099",
      "lon":"24.949636",
      "stationId":"017"
    },
    {
      "name":"Porthania",
      "total_slots":20,
      "lat":"60.169873",
      "lon":" 24.948153",
      "stationId":"018"
    },
    {
      "name":"Rautatientori / itä",
      "total_slots":20,
      "lat":"60.170760",
      "lon":"24.942522",
      "stationId":"019"
    },
    {
      "name":"Kaisaniemenpuisto",
      "total_slots":22,
      "lat":"60.172958",
      "lon":"24.942920",
      "stationId":"020"
    },
    {
      "name":"Töölönlahdenkatu",
      "total_slots":24,
      "lat":"60.172910",
      "lon":"24.939130",
      "stationId":"021"
    },
    {
      "name":"Rautatientori / länsi",
      "total_slots":16,
      "lat":"60.170600",
      "lon":"24.939671",
      "stationId":"022"
    },
    {
      "name":"Kiasma",
      "total_slots":30,
      "lat":"60.171413",
      "lon":"24.937402",
      "stationId":"023"
    },
    {
      "name":"Mannerheimintie",
      "total_slots":16,
      "lat":"60.169045",
      "lon":"24.939429",
      "stationId":"024"
    },
    {
      "name":"Narinkka",
      "total_slots":40,
      "lat":"60.170015",
      "lon":"24.935259",
      "stationId":"025"
    },
    {
      "name":"Kampin metroasema",
      "total_slots":28,
      "lat":"60.168644",
      "lon":"24.930435",
      "stationId":"026"
    },
    {
      "name":"Eerikinkatu",
      "total_slots":14,
      "lat":"60.167390",
      "lon":"24.935913",
      "stationId":"027"
    },
    {
      "name":"Lastenlehto",
      "total_slots":16,
      "lat":"60.165754",
      "lon":"24.927050",
      "stationId":"028"
    },
    {
      "name":"Baana",
      "total_slots":20,
      "lat":"60.164159",
      "lon":"24.922583",
      "stationId":"029"
    },
    {
      "name":"Itämerentori",
      "total_slots":30,
      "lat":"60.163535",
      "lon":"24.914765",
      "stationId":"030"
    },
    {
      "name":"Marian Sairaala",
      "total_slots":16,
      "lat":"60.168335",
      "lon":"24.922770",
      "stationId":"031"
    },
    {
      "name":"Eläinmuseo",
      "total_slots":20,
      "lat":"60.171346",
      "lon":"24.931874",
      "stationId":"032"
    },
    {
      "name":"Kauppakorkeakoulu",
      "total_slots":16,
      "lat":"60.171155",
      "lon":"24.925060",
      "stationId":"033"
    },
    {
      "name":"Kansallismuseo",
      "total_slots":16,
      "lat":"60.173944",
      "lon":"24.932879",
      "stationId":"034"
    },
    {
      "name":"Apollonkatu",
      "total_slots":12,
      "lat":"60.176076",
      "lon":"24.922503",
      "stationId":"036"
    },
    {
      "name":"Töölönkatu",
      "total_slots":18,
      "lat":"60.1774947",
      "lon":" 24.928409278",
      "stationId":"037"
    },
    {
      "name":"Töölöntori",
      "total_slots":16,
      "lat":"60.179141",
      "lon":"24.924981",
      "stationId":"038"
    },
    {
      "name":"Ooppera",
      "total_slots":20,
      "lat":"60.182578",
      "lon":"24.926764",
      "stationId":"039"
    },
    {
      "name":"Hakaniemen metroasema",
      "total_slots":28,
      "lat":"60.178102",
      "lon":"24.952391",
      "stationId":"040"
    },
    {
      "name":"Ympyrätalo",
      "total_slots":28,
      "lat":"60.180808",
      "lon":"24.949272",
      "stationId":"041"
    },
    {
      "name":"Haapaniemenkatu",
      "total_slots":18,
      "lat":"60.181907",
      "lon":"24.956880",
      "stationId":"042"
    },
    {
      "name":"Karhupuisto",
      "total_slots":20,
      "lat":"60.184283",
      "lon":"24.952703",
      "stationId":"043"
    },
    {
      "name":"Sörnäisten metroasema",
      "total_slots":24,
      "lat":"60.187704",
      "lon":"24.960505",
      "stationId":"044"
    },
    {
      "name":"Brahen kenttä",
      "total_slots":20,
      "lat":"60.186742",
      "lon":"24.950833",
      "stationId":"045"
    },
    {
      "name":"Diakoniapuisto",
      "total_slots":10,
      "lat":"60.186281",
      "lon":"24.941812",
      "stationId":"046"
    },
    {
      "name":"Kauppatori",
      "total_slots":12,
      "lat":"60.167626",
      "lon":"24.956430",
      "stationId":"047"
    },
    {
      "name":"Mastokatu",
      "total_slots":16,
      "lat":"60.164800",
      "lon":"24.968021",
      "stationId":"048"
    },
    {
      "name":"Melkonkuja",
      "total_slots":20,
      "lat":"60.1498127",
      "lon":"24.8861094",
      "stationId":"050"
    },
    {
      "name":"Itälahdenkatu",
      "total_slots":18,
      "lat":"60.15066",
      "lon":"24.8812502",
      "stationId":"051"
    },
    {
      "name":"Heikkilänaukio",
      "total_slots":24,
      "lat":"60.1540763",
      "lon":"24.8793159",
      "stationId":"052"
    },
    {
      "name":"Heikkiläntie",
      "total_slots":12,
      "lat":"60.156817",
      "lon":"24.8850653",
      "stationId":"053"
    },
    {
      "name":"Gyldenintie",
      "total_slots":26,
      "lat":"60.1583842",
      "lon":"24.8766658",
      "stationId":"054"
    },
    {
      "name":"Lahnalahdentie",
      "total_slots":16,
      "lat":"60.1617736",
      "lon":"24.8679212",
      "stationId":"055"
    },
    {
      "name":"Luoteisväylä",
      "total_slots":16,
      "lat":"60.1654485",
      "lon":"24.8601992",
      "stationId":"056"
    },
    {
      "name":"Lauttasaaren ostoskeskus",
      "total_slots":26,
      "lat":"60.1603306",
      "lon":"24.8815441",
      "stationId":"057"
    },
    {
      "name":"Lauttasaarensilta",
      "total_slots":20,
      "lat":"60.1615512",
      "lon":"24.8926386",
      "stationId":"058"
    },
    {
      "name":"Porkkalankatu",
      "total_slots":36,
      "lat":"60.1632493",
      "lon":"24.905336",
      "stationId":"060"
    },
    {
      "name":"Länsisatamankatu",
      "total_slots":16,
      "lat":"60.1589276",
      "lon":"24.909692",
      "stationId":"061"
    },
    {
      "name":"Messitytönkatu",
      "total_slots":18,
      "lat":"60.1610901",
      "lon":"24.9158734",
      "stationId":"062"
    },
    {
      "name":"Jätkäsaarenlaituri",
      "total_slots":24,
      "lat":"60.1619311",
      "lon":"24.9214896",
      "stationId":"063"
    },
    {
      "name":"Tyynenmerenkatu",
      "total_slots":28,
      "lat":"60.1565255",
      "lon":"24.9217464",
      "stationId":"064"
    },
    {
      "name":"Hylkeenpyytäjänkatu",
      "total_slots":24,
      "lat":"60.1546505",
      "lon":"24.9314755",
      "stationId":"065"
    },
    {
      "name":"Ehrenströmintie",
      "total_slots":24,
      "lat":"60.155309",
      "lon":"24.9591271",
      "stationId":"066"
    },
    {
      "name":"Albertinkatu",
      "total_slots":20,
      "lat":"60.1618359",
      "lon":"24.9368179",
      "stationId":"068"
    },
    {
      "name":"Kalevankatu",
      "total_slots":16,
      "lat":"60.1656962",
      "lon":"24.9314323",
      "stationId":"069"
    },
    {
      "name":"Sammonpuistikko",
      "total_slots":14,
      "lat":"60.1731473",
      "lon":"24.9224112",
      "stationId":"070"
    },
    {
      "name":"Hietaniemenkatu",
      "total_slots":28,
      "lat":"60.172630",
      "lon":"24.911406",
      "stationId":"071"
    },
    {
      "name":"Eteläinen Hesperiankatu",
      "total_slots":18,
      "lat":"60.1756332",
      "lon":"24.9160216",
      "stationId":"072"
    },
    {
      "name":"Kesäkatu",
      "total_slots":14,
      "lat":"60.1792967",
      "lon":"24.9132504",
      "stationId":"073"
    },
    {
      "name":"Rajasaarentie",
      "total_slots":16,
      "lat":"60.183137",
      "lon":"24.911127",
      "stationId":"074"
    },
    {
      "name":"Korjaamo",
      "total_slots":20,
      "lat":"60.1838677",
      "lon":"24.9198371",
      "stationId":"075"
    },
    {
      "name":"Olympiastadion",
      "total_slots":20,
      "lat":"60.1845055",
      "lon":"24.9249741",
      "stationId":"076"
    },
    {
      "name":"Messeniuksenkatu",
      "total_slots":24,
      "lat":"60.1878352",
      "lon":"24.9180102",
      "stationId":"078"
    },
    {
      "name":"Uimastadion",
      "total_slots":26,
      "lat":"60.1892172",
      "lon":"24.9292286",
      "stationId":"079"
    },
    {
      "name":"Jäähalli",
      "total_slots":28,
      "lat":"60.1894025",
      "lon":"24.9205978",
      "stationId":"080"
    },
    {
      "name":"Stenbäckinkatu",
      "total_slots":18,
      "lat":"60.1883091",
      "lon":"24.9123717",
      "stationId":"081"
    },
    {
      "name":"Töölöntulli",
      "total_slots":20,
      "lat":"60.190663",
      "lon":"24.914096",
      "stationId":"082"
    },
    {
      "name":"Meilahden sairaala",
      "total_slots":20,
      "lat":"60.1902195",
      "lon":"24.9083351",
      "stationId":"083"
    },
    {
      "name":"Jalavatie",
      "total_slots":16,
      "lat":"60.1934696",
      "lon":"24.905889",
      "stationId":"085"
    },
    {
      "name":"Kuusitie",
      "total_slots":24,
      "lat":"60.1952452",
      "lon":"24.9018997",
      "stationId":"086"
    },
    {
      "name":"Kiskontie",
      "total_slots":20,
      "lat":"60.1989402",
      "lon":"24.9012997",
      "stationId":"088"
    },
    {
      "name":"Tilkanvierto",
      "total_slots":16,
      "lat":"60.1975329",
      "lon":"24.899261",
      "stationId":"089"
    },
    {
      "name":"Paciuksenkaari",
      "total_slots":20,
      "lat":"60.1944475",
      "lon":"24.8911179",
      "stationId":"090"
    },
    {
      "name":"Seurasaari",
      "total_slots":22,
      "lat":"60.188399",
      "lon":"24.8847362",
      "stationId":"091"
    },
    {
      "name":"Saunalahdentie",
      "total_slots":12,
      "lat":"60.1928927",
      "lon":"24.878452",
      "stationId":"092"
    },
    {
      "name":"Torpanranta",
      "total_slots":16,
      "lat":"60.1948358",
      "lon":"24.8713963",
      "stationId":"093"
    },
    {
      "name":"Laajalahden aukio",
      "total_slots":22,
      "lat":"60.1983016",
      "lon":"24.8759851",
      "stationId":"094"
    },
    {
      "name":"Munkkiniemen aukio",
      "total_slots":24,
      "lat":"60.1967196",
      "lon":"24.8840917",
      "stationId":"095"
    },
    {
      "name":"Huopalahdentie",
      "total_slots":14,
      "lat":"60.1996653",
      "lon":"24.8836209",
      "stationId":"096"
    },
    {
      "name":"Professorintie",
      "total_slots":16,
      "lat":"60.2006837",
      "lon":"24.8766846",
      "stationId":"097"
    },
    {
      "name":"Ulvilantie",
      "total_slots":12,
      "lat":"60.2038803",
      "lon":"24.8708833",
      "stationId":"098"
    },
    {
      "name":"Muusantori",
      "total_slots":16,
      "lat":"60.2071193",
      "lon":"24.8559544",
      "stationId":"099"
    },
    {
      "name":"Ulvilanpuisto",
      "total_slots":12,
      "lat":"60.2066706",
      "lon":"24.871352",
      "stationId":"100"
    },
    {
      "name":"Munkkivuoren ostoskeskus",
      "total_slots":24,
      "lat":"60.2059946",
      "lon":"24.8798291",
      "stationId":"101"
    },
    {
      "name":"Niemenmäenkuja",
      "total_slots":14,
      "lat":"60.2039914",
      "lon":"24.8857767",
      "stationId":"102"
    },
    {
      "name":"Vihdintie",
      "total_slots":14,
      "lat":"60.208925",
      "lon":"24.8895209",
      "stationId":"103"
    },
    {
      "name":"Kriikunakuja",
      "total_slots":16,
      "lat":"60.2056785",
      "lon":"24.8916817",
      "stationId":"104"
    },
    {
      "name":"Tilkantori",
      "total_slots":22,
      "lat":"60.2028392",
      "lon":"24.8934761",
      "stationId":"105"
    },
    {
      "name":"Korppaanmäentie",
      "total_slots":16,
      "lat":"60.2034735",
      "lon":"24.8989297",
      "stationId":"106"
    },
    {
      "name":"Tenholantie",
      "total_slots":14,
      "lat":"60.2024393",
      "lon":"24.9054609",
      "stationId":"107"
    },
    {
      "name":"Radiokatu",
      "total_slots":18,
      "lat":"60.204447",
      "lon":"24.917931",
      "stationId":"108"
    },
    {
      "name":"Maistraatintori",
      "total_slots":20,
      "lat":"60.198898",
      "lon":"24.924867",
      "stationId":"110"
    },
    {
      "name":"Esterinportti",
      "total_slots":20,
      "lat":"60.1975724",
      "lon":"24.9267808",
      "stationId":"111"
    },
    {
      "name":"Rautatieläisenkatu",
      "total_slots":22,
      "lat":"60.2014382",
      "lon":"24.9332721",
      "stationId":"112"
    },
    {
      "name":"Veturitori",
      "total_slots":40,
      "lat":"60.199715",
      "lon":"24.935198",
      "stationId":"113"
    },
    {
      "name":"Ratapihantie",
      "total_slots":26,
      "lat":"60.197016",
      "lon":"24.935891",
      "stationId":"114"
    },
    {
      "name":"Venttiilikuja",
      "total_slots":16,
      "lat":"60.1942095",
      "lon":"24.941578",
      "stationId":"115"
    },
    {
      "name":"Linnanmäki",
      "total_slots":32,
      "lat":"60.1911411",
      "lon":"24.9401593",
      "stationId":"116"
    },
    {
      "name":"Brahen puistikko",
      "total_slots":12,
      "lat":"60.1896706",
      "lon":"24.9481024",
      "stationId":"117"
    },
    {
      "name":"Fleminginkatu",
      "total_slots":22,
      "lat":"60.1895417",
      "lon":"24.9521601",
      "stationId":"118"
    },
    {
      "name":"Gebhardinaukio",
      "total_slots":16,
      "lat":"60.1907096",
      "lon":"24.9568729",
      "stationId":"119"
    },
    {
      "name":"Mäkelänkatu",
      "total_slots":28,
      "lat":"60.1896352",
      "lon":"24.9635596",
      "stationId":"120"
    },
    {
      "name":"Lintulahdenkatu",
      "total_slots":16,
      "lat":"60.1837182",
      "lon":"24.9621936",
      "stationId":"122"
    },
    {
      "name":"Näkinsilta",
      "total_slots":16,
      "lat":"60.179765",
      "lon":"24.9554618",
      "stationId":"123"
    },
    {
      "name":"Arielinkatu",
      "total_slots":20,
      "lat":"60.1847821",
      "lon":"24.9786428",
      "stationId":"125"
    },
    {
      "name":"Kalasataman metroasema",
      "total_slots":26,
      "lat":"60.188399",
      "lon":"24.975852",
      "stationId":"126"
    },
    {
      "name":"Teurastamo",
      "total_slots":20,
      "lat":"60.1896994",
      "lon":"24.9711926",
      "stationId":"127"
    },
    {
      "name":"Päijänteentie",
      "total_slots":14,
      "lat":"60.1920576",
      "lon":"24.9642238",
      "stationId":"128"
    },
    {
      "name":"Pernajantie",
      "total_slots":20,
      "lat":"60.1942342",
      "lon":"24.9579931",
      "stationId":"129"
    },
    {
      "name":"Teollisuuskatu",
      "total_slots":20,
      "lat":"60.193486",
      "lon":"24.9487524",
      "stationId":"130"
    },
    {
      "name":"Elimäenkatu",
      "total_slots":20,
      "lat":"60.1962627",
      "lon":"24.9476186",
      "stationId":"131"
    },
    {
      "name":"Paavalinpuisto",
      "total_slots":22,
      "lat":"60.1974886",
      "lon":"24.9614385",
      "stationId":"133"
    },
    {
      "name":"Haukilahdenkatu",
      "total_slots":18,
      "lat":"60.1985314",
      "lon":"24.9676708",
      "stationId":"134"
    },
    {
      "name":"Velodrominrinne",
      "total_slots":20,
      "lat":"60.2010614",
      "lon":"24.9440506",
      "stationId":"135"
    },
    {
      "name":"Sofianlehdonkatu",
      "total_slots":16,
      "lat":"60.2032721",
      "lon":"24.9513636",
      "stationId":"136"
    },
    {
      "name":"Arabian kauppakeskus",
      "total_slots":12,
      "lat":"60.2027912",
      "lon":"24.9666128",
      "stationId":"137"
    },
    {
      "name":"Arabiankatu",
      "total_slots":14,
      "lat":"60.2064085",
      "lon":"24.9765672",
      "stationId":"138"
    },
    {
      "name":"Kaironkatu",
      "total_slots":16,
      "lat":"60.2100255",
      "lon":"24.9765801",
      "stationId":"139"
    },
    {
      "name":"Verkatehtaanpuisto",
      "total_slots":14,
      "lat":"60.2137007",
      "lon":"24.9797283",
      "stationId":"140"
    },
    {
      "name":"Intiankatu",
      "total_slots":24,
      "lat":"60.2078582",
      "lon":"24.9676383",
      "stationId":"141"
    },
    {
      "name":"Koskelantie",
      "total_slots":14,
      "lat":"60.208749",
      "lon":"24.9465139",
      "stationId":"142"
    },
    {
      "name":"Käpyläntie",
      "total_slots":14,
      "lat":"60.2139043",
      "lon":"24.9588108",
      "stationId":"144"
    },
    {
      "name":"Pohjolankatu",
      "total_slots":20,
      "lat":"60.213421",
      "lon":"24.9437964",
      "stationId":"145"
    },
    {
      "name":"Pohjolanaukio",
      "total_slots":20,
      "lat":"60.2172043",
      "lon":"24.9544112",
      "stationId":"146"
    },
    {
      "name":"Käpylän asema",
      "total_slots":22,
      "lat":"60.220227",
      "lon":" 24.948694",
      "stationId":"147"
    },
    {
      "name":"Juhana Herttuan tie",
      "total_slots":22,
      "lat":"60.2184427",
      "lon":"24.9664619",
      "stationId":"148"
    },
    {
      "name":"Toinen linja",
      "total_slots":22,
      "lat":"60.183164",
      "lon":"24.9441949",
      "stationId":"149"
    },
    {
      "name":"Töölönlahden puisto",
      "total_slots":32,
      "lat":"60.1766793",
      "lon":"24.9338701",
      "stationId":"150"
    },
    {
      "name":"Ruomelantie",
      "total_slots":12,
      "lat":"60.174524",
      "lon":" 24.729314",
      "stationId":"151"
    },
    {
      "name":"Friisinkalliontie",
      "total_slots":16,
      "lat":"60.168971",
      "lon":" 24.724908",
      "stationId":"152"
    },
    {
      "name":"Kuunkatu",
      "total_slots":24,
      "lat":"60.172673",
      "lon":" 24.726025",
      "stationId":"153"
    },
    {
      "name":"Olarinkatu",
      "total_slots":16,
      "lat":"60.167216",
      "lon":" 24.735969",
      "stationId":"154"
    },
    {
      "name":"Piispansilta",
      "total_slots":32,
      "lat":"60.162403",
      "lon":" 24.738416",
      "stationId":"155"
    },
    {
      "name":"Suomenlahdentie",
      "total_slots":32,
      "lat":"60.159537",
      "lon":" 24.738300",
      "stationId":"156"
    },
    {
      "name":"Kalastajantie",
      "total_slots":12,
      "lat":"60.153737",
      "lon":" 24.729112",
      "stationId":"157"
    },
    {
      "name":"Sepetlahdentie",
      "total_slots":10,
      "lat":"60.152343",
      "lon":" 24.741234",
      "stationId":"158"
    },
    {
      "name":"Matinkartanontie",
      "total_slots":28,
      "lat":"60.158083",
      "lon":" 24.750928",
      "stationId":"159"
    },
    {
      "name":"Nokkala",
      "total_slots":18,
      "lat":"60.147974",
      "lon":" 24.754344",
      "stationId":"160"
    }
  ]
}
